{"timeline":{"2022":1},"types":[{"name":"Text","value":1,"itemId":8}],"languages":[{"name":"English","value":1,"itemId":1858}],"subjects":[{"name":"COVID-19 Pandemic, 2020-2023","value":1,"itemId":2049},{"name":"Arid regions","value":1,"itemId":2073},{"name":"Maasai (African people)","value":1,"itemId":2245},{"name":"Tourism","value":1,"itemId":2366},{"name":"East Africa","value":1,"itemId":2058},{"name":"Kenya","value":1,"itemId":2822},{"name":"Maasai","value":1,"itemId":2875},{"name":"Conflict","value":1,"itemId":2580},{"name":"COVID-19 Pandemic","value":1,"itemId":2595}],"contributors":[{"name":"Kronenburg García, Angela","value":1,"itemId":119},{"name":"Goldman, Mara","value":1,"itemId":113},{"name":"Heita, Jona","value":1,"itemId":116},{"name":"Schrijver, Annemiek Pas","value":1,"itemId":129},{"name":"Gargallo, Eduard","value":1,"itemId":112},{"name":"Seenoi, Debra","value":1,"itemId":130}],"locations":[{"name":"Kenya","lat":0.1,"lon":38.0,"itemId":1896,"value":3,"items":[{"id":7690,"title":"Debra Seenoi's transcript, Kenya, June 13, 2022"},{"id":7690,"title":"Debra Seenoi's transcript, Kenya, June 13, 2022"},{"id":7690,"title":"Debra Seenoi's transcript, Kenya, June 13, 2022"}]},{"name":"Tanzania","lat":-6.306944444,"lon":34.853888888,"itemId":1910,"value":2,"items":[{"id":7690,"title":"Debra Seenoi's transcript, Kenya, June 13, 2022"},{"id":7690,"title":"Debra Seenoi's transcript, Kenya, June 13, 2022"}]},{"name":"Mpuaai","lat":-1.55,"lon":35.75,"itemId":1968,"value":1,"items":[{"id":7690,"title":"Debra Seenoi's transcript, Kenya, June 13, 2022"}]},{"name":"Talek","lat":-1.41413,"lon":35.09686,"itemId":1990,"value":1,"items":[{"id":7690,"title":"Debra Seenoi's transcript, Kenya, June 13, 2022"}]},{"name":"Maasai Mara National Reserve","lat":-1.5,"lon":35.1,"itemId":1959,"value":1,"items":[{"id":7690,"title":"Debra Seenoi's transcript, Kenya, June 13, 2022"}]},{"name":"Loliondo","lat":-2.05,"lon":35.61666667,"itemId":1955,"value":1,"items":[{"id":7690,"title":"Debra Seenoi's transcript, Kenya, June 13, 2022"}]},{"name":"Ngorongoro","lat":-3.25,"lon":35.51666667,"itemId":1974,"value":1,"items":[{"id":7690,"title":"Debra Seenoi's transcript, Kenya, June 13, 2022"}]}],"totalItems":1,"selfLocation":{"name":"Ngorongoro","lat":-3.25,"lon":35.51666667,"itemId":1974}}