{"timeline":{"2021":1},"types":[{"name":"Text","value":1,"itemId":8}],"languages":[{"name":"English","value":1,"itemId":1858},{"name":"Mongolian","value":1,"itemId":1871}],"subjects":[{"name":"COVID-19 Pandemic, 2020-2023","value":1,"itemId":2049},{"name":"Arid regions","value":1,"itemId":2073},{"name":"Travel","value":1,"itemId":2369},{"name":"Internal migration","value":1,"itemId":2253},{"name":"Households","value":1,"itemId":2200},{"name":"Disasters","value":1,"itemId":2142},{"name":"Lockdown","value":1,"itemId":2871},{"name":"Otor (Mongolia)","value":1,"itemId":2966},{"name":"Dzud (Mongolia)","value":1,"itemId":2628},{"name":"Mongolia","value":1,"itemId":2915},{"name":"Mobility","value":1,"itemId":2912},{"name":"COVID-19 Pandemic","value":1,"itemId":2595}],"contributors":[{"name":"Batjav, Batbuyan","value":1,"itemId":105}],"locations":[{"name":"Mongolia","lat":46.0,"lon":105.0,"itemId":1898,"value":4,"items":[{"id":7703,"title":"Photo report of Mongolian pastoralists in the time of the Covid-19, February 2021"},{"id":7703,"title":"Photo report of Mongolian pastoralists in the time of the Covid-19, February 2021"},{"id":7703,"title":"Photo report of Mongolian pastoralists in the time of the Covid-19, February 2021"},{"id":7703,"title":"Photo report of Mongolian pastoralists in the time of the Covid-19, February 2021"}]},{"name":"Battsengel Soum","lat":47.792222222,"lon":101.973888888,"itemId":1920,"value":1,"items":[{"id":7703,"title":"Photo report of Mongolian pastoralists in the time of the Covid-19, February 2021"}]},{"name":"Tsagaan-Ovoo Soum","lat":48.44001,"lon":113.12521,"itemId":1997,"value":1,"items":[{"id":7703,"title":"Photo report of Mongolian pastoralists in the time of the Covid-19, February 2021"}]},{"name":"Sükhbaatar Province","lat":46.683333333,"lon":113.283333333,"itemId":10329,"value":1,"items":[{"id":7703,"title":"Photo report of Mongolian pastoralists in the time of the Covid-19, February 2021"}]},{"name":"Govi-Altai Province","lat":45.5,"lon":96.0,"itemId":10322,"value":1,"items":[{"id":7703,"title":"Photo report of Mongolian pastoralists in the time of the Covid-19, February 2021"}]},{"name":"China","lat":35.844722222,"lon":103.451944444,"itemId":15645,"value":1,"items":[{"id":7703,"title":"Photo report of Mongolian pastoralists in the time of the Covid-19, February 2021"}]},{"name":"Russia","lat":66.416666666,"lon":94.25,"itemId":15647,"value":1,"items":[{"id":7703,"title":"Photo report of Mongolian pastoralists in the time of the Covid-19, February 2021"}]}],"totalItems":1,"selfLocation":{"name":"Tsagaan-Ovoo Soum","lat":48.44001,"lon":113.12521,"itemId":1997},"resourceType":"location"}