{"timeline":{"1976":1,"1989":1,"1990":3,"1992":1,"1997":1,"1999":1,"2004":2,"2005":1,"2006":3,"2009":2,"2010":1,"2012":2,"2014":1,"2015":1,"2017":2,"2018":4,"2023":1},"types":[{"name":"Text","value":28,"itemId":8}],"languages":[],"contributors":[{"name":"Shakespeare Society of Southern Africa","value":8,"itemId":1328},{"name":"Wright, Laurence","value":3,"itemId":252},{"name":"Bartels, Emily C.","value":2,"itemId":222},{"name":"Balogun, Lekan","value":2,"itemId":148},{"name":"Indiana University Press","value":2,"itemId":1306},{"name":"De Gruyter","value":2,"itemId":1303},{"name":"SAGE Publications","value":2,"itemId":1326},{"name":"Seeff, Adele","value":2,"itemId":244},{"name":"ACMRS Press","value":2,"itemId":1294},{"name":"van Wyk Smith, Malvern","value":2,"itemId":254},{"name":"Johns Hopkins University Press","value":1,"itemId":1308},{"name":"University of Zadar","value":1,"itemId":1346},{"name":"Mafe, Diana Adesola","value":1,"itemId":238},{"name":"California Institute of Pan African Studies","value":1,"itemId":1298},{"name":"Adekele, Durotoye A.","value":1,"itemId":216},{"name":"Rodopi","value":1,"itemId":1323},{"name":"Agbozo, G. Edzordzi","value":1,"itemId":217},{"name":"Lodz University Press","value":1,"itemId":1309},{"name":"Andreas, James R.","value":1,"itemId":218},{"name":"South Atlanic Modern Language Association","value":1,"itemId":1329},{"name":"Arndt, Susan","value":1,"itemId":219},{"name":"Omohundro Instittute of Early American History and Culture","value":1,"itemId":1317},{"name":"Busia, Abena P. A.","value":1,"itemId":224},{"name":"University of Minnesota Press","value":1,"itemId":1341},{"name":"Caulker, Tcho Mbaima","value":1,"itemId":225},{"name":"Chapman, Matthieu A.","value":1,"itemId":226},{"name":"McMaster University Library Press","value":1,"itemId":1311},{"name":"Clark, Ebun","value":1,"itemId":227},{"name":"Figzał-Janikowska, Magdalena","value":1,"itemId":231},{"name":"Fundación Universitaria Española","value":1,"itemId":1305}],"locations":[{"name":"Makhanda","lat":-33.3,"lon":26.533333333,"itemId":1962,"value":8,"items":[{"id":9266,"title":"Othello and the Narrative of Africa"},{"id":9269,"title":"Aspects of Shakespeare in Post-Colonial Africa"},{"id":9272,"title":"Sher and Doran's Titus Andronicus (1995): Importing Shakespeare, Exporting South Afirca"},{"id":9273,"title":"The Africa that Shakespeare Imagined; or, Notes for Aspirant Film Makers"},{"id":9275,"title":"South Africa in Shakespeare's \"wide and universal theatre\""},{"id":9276,"title":"Whose Shakespeare? Early Black South African Engagement with Shakespeare"},{"id":9277,"title":"Shakespeare in South Africa: Alpha and 'Omega'"},{"id":9278,"title":"The Revelance of (South African) Renaissance Studies"}]},{"name":"Bloomington","lat":39.166666666,"lon":-86.534722222,"itemId":1923,"value":2,"items":[{"id":9238,"title":"From Ògún to Othello: (Re)Acquainting Yoruba Myth and Shakespeare’s Moo"},{"id":9253,"title":"Shakespeare's \"Julius Caesar\" in Sierra Leone: Thomas Decker's \"Juliohs Siza\", Roman Politics, and the Emergence of a Postcolonial African State"}]},{"name":"Berlin","lat":52.516666666,"lon":13.383333333,"itemId":1922,"value":2,"items":[{"id":9248,"title":"Tran*stextuality in William Shakespeare's Othello: Italian, West African and English Encounters"},{"id":9263,"title":"The Risks of Intertextuality: Shakespearean Allusions in Isak Dinesen's Out of Africa and William Trevor's Fools of Fortunune"}]},{"name":"Thousand Oaks","lat":34.189444444,"lon":-118.875,"itemId":1994,"value":2,"items":[{"id":9255,"title":"Othello the Complete Gentleman: An African Folkloric Interpretation"},{"id":9260,"title":"South Africa: The White English-speaking Sensibility"}]},{"name":"Tempe","lat":33.425555555,"lon":-111.94,"itemId":1992,"value":2,"items":[{"id":9264,"title":"Race, Post-Race, Shakespeare, and South Africa"},{"id":9265,"title":"Titus Andronicus: South Africa's Shakespeare"}]},{"name":"Baltimore","lat":39.286388888,"lon":-76.615,"itemId":1919,"value":1,"items":[{"id":9231,"title":"Too Many Blackamoors: Deportation, Discrimination, and Elizabeth I"}]},{"name":"Zadar","lat":44.114166666,"lon":15.2275,"itemId":2007,"value":1,"items":[{"id":9234,"title":"Collaborating with a Dead Man: The Cultural Politics of Ahmed Yerima's Otaelo"}]},{"name":"Long Beach","lat":33.768055555,"lon":-118.195555555,"itemId":1957,"value":1,"items":[{"id":9244,"title":"Violence and Xenophobia in South Africa: Shakespeare, Thomas Mofolo's Chaka, and Welcome Msomi's uMabatha: the Zulu Macbeth"}]},{"name":"Amsterdam","lat":52.366666666,"lon":4.883333333,"itemId":1914,"value":1,"items":[{"id":9245,"title":"Parody of the Shakespearean Fool Tradition in an African Society"}]},{"name":"Madrid","lat":40.416944444,"lon":-3.703333333,"itemId":1960,"value":1,"items":[{"id":9246,"title":"Translation as Rewriting: Cultural Theoretical Appraisal of Shakespeare’s Macbeth in the Ewe language of West Africa"}]},{"name":"Atlanta","lat":33.754444444,"lon":-84.389722222,"itemId":1918,"value":1,"items":[{"id":9247,"title":"Othello's African American Progeny"}]},{"name":"Williamsburg","lat":37.2708,"lon":-76.7069,"itemId":2004,"value":1,"items":[{"id":9250,"title":"Othello and Africa: Postcolonialism Reconsidered"}]},{"name":"Minneapolis","lat":44.981944444,"lon":-93.269166666,"itemId":1965,"value":1,"items":[{"id":9252,"title":"Silencing Sycorax: On African Colonial Discourse and the Unvoiced Female"}]},{"name":"Hamilton","lat":43.256666666,"lon":-79.869166666,"itemId":1938,"value":1,"items":[{"id":9254,"title":"The Appearance of Blacks on the Early Modern Stage: Love’s Labour’s Lost’s African Connections to Court"}]},{"name":"Katowice","lat":50.25,"lon":19.0,"itemId":1948,"value":1,"items":[{"id":9257,"title":"The circle of outcasts: Krzysztof Warlikowski’s ‘African tales by Shakespeare"}]},{"name":"Ann Arbor","lat":42.281388888,"lon":-83.748333333,"itemId":1916,"value":1,"items":[{"id":9258,"title":"English Voyages and Accounts: Impact on Renaissance Dramatic Presentation of the African"}]},{"name":"Rome","lat":41.893055555,"lon":12.482777777,"itemId":1986,"value":1,"items":[{"id":9268,"title":"The sayings of Tsikinya-Chaka: Shakespeare in South Africa"}]}],"totalItems":28,"coSubjects":[{"name":"Shakespeare","value":24,"itemId":3061},{"name":"South Africa","value":10,"itemId":2345},{"name":"Othello","value":7,"itemId":2965},{"name":"Africa","value":7,"itemId":2057},{"name":"Deportation","value":2,"itemId":2139},{"name":"England","value":2,"itemId":2657},{"name":"Yoruba (African people)","value":2,"itemId":2390},{"name":"Intertextuality","value":2,"itemId":2406},{"name":"Travel in literature","value":2,"itemId":2370},{"name":"Yoruba","value":2,"itemId":3155},{"name":"Macbeth","value":2,"itemId":2876},{"name":"Black People","value":2,"itemId":2515},{"name":"Identity","value":2,"itemId":2781},{"name":"Postcolonialism","value":2,"itemId":2425},{"name":"Postcolonial Studies","value":2,"itemId":2997},{"name":"Blackamoor","value":1,"itemId":2519},{"name":"Queen Elizabeth","value":1,"itemId":3019},{"name":"Igbo language","value":1,"itemId":2203},{"name":"Collaboration","value":1,"itemId":2563},{"name":"Nigeria","value":1,"itemId":2943},{"name":"Parallel","value":1,"itemId":2970},{"name":"Violence","value":1,"itemId":2380},{"name":"Zulu (African people)","value":1,"itemId":2395},{"name":"Oral tradition","value":1,"itemId":2276},{"name":"Adaptation","value":1,"itemId":2443},{"name":"Mofolo","value":1,"itemId":2914},{"name":"Msomi","value":1,"itemId":2924},{"name":"Zulu","value":1,"itemId":3164},{"name":"Parody","value":1,"itemId":2280},{"name":"Fool Tradition","value":1,"itemId":2704}],"resourceType":"authority"}